[
    {"key":"Trieste","latitude":45.6544,"longitude":13.7561,"name":"Trieste"},
    {"key":"Venice","latitude":45.418219,"longitude":12.426528,"name":"Venice"},
    {"key":"Ancona","latitude":43.624766666667,"longitude":13.506516666667,"name":"Ancona"},
    {"key":"S. Benedetto Del Tronto","latitude":42.955122222222,"longitude":13.889758333333,"name":"S. Benedetto Del Tronto"},
    {"key":"Stari Grad","latitude":43.181,"longitude":16.576,"name":"Stari Grad"},
    {"key":"Vela Luka","latitude":42.962,"longitude":16.715,"name":"Vela Luka"},
    {"key":"Sobra","latitude":42.793,"longitude":17.62,"name":"Sobra"},
    {"key":"Otranto","latitude":40.1464,"longitude":18.4969,"name":"Otranto"},
    {"key":"Kerkyra, Corfu","latitude":39.79,"longitude":19.91,"name":"Kerkyra, Corfu"},
    {"key":"Crotone","latitude":39.083580555556,"longitude":17.137055555556,"name":"Crotone"},
    {"key":"Le Castella","latitude":38.908368,"longitude":17.028664,"name":"Le Castella"},
    {"key":"Itea","latitude":38.43,"longitude":22.42,"name":"Itea"},
    {"key":"Panormos","latitude":38.359995,"longitude":22.253942,"name":"Panormos"},
    {"key":"Aigio","latitude":38.26,"longitude":22.08,"name":"Aigio"},
    {"key":"Katakolo","latitude":37.64045,"longitude":21.319233,"name":"Katakolo"},
    {"key":"Koper - kapitanija","latitude":45.54839,"longitude":13.72915,"name":"Koper - kapitanija"},
    {"key":"Diga_sud_Lido","latitude":45.42,"longitude":12.43,"name":"Diga_sud_Lido"},
    {"key":"Diga_nord_Malamocco","latitude":45.33,"longitude":12.34,"name":"Diga_nord_Malamocco"},
    {"key":"Diga_sud_Chioggia","latitude":45.23,"longitude":12.31,"name":"Diga_sud_Chioggia"},
    {"key":"Punta_Salute_Canal_Grande","latitude":45.43,"longitude":12.34,"name":"Punta_Salute_Canal_Grande"},
    {"key":"Laguna_nord_Saline","latitude":45.5,"longitude":12.47,"name":"Laguna_nord_Saline"},
    {"key":"Venezia_Misericordia","latitude":45.45,"longitude":12.34,"name":"Venezia_Misericordia"},
    {"key":"Burano","latitude":45.48,"longitude":12.42,"name":"Burano"},
    {"key":"Malamocco_Porto","latitude":45.34,"longitude":12.29,"name":"Malamocco_Porto"},
    {"key":"Chioggia_porto","latitude":45.23,"longitude":12.28,"name":"Chioggia_porto"},
    {"key":"Chioggia_Vigo","latitude":45.22,"longitude":12.28,"name":"Chioggia_Vigo"},
    {"key":"Fusina","latitude":45.41,"longitude":12.26,"name":"Fusina"},
    {"key":"Punta_Salute_Canale_Giudecca","latitude":45.43,"longitude":12.34,"name":"Punta_Salute_Canale_Giudecca"},
    {"key":"Piattaforma_Acqua_Alta_Siap","latitude":45.3230555555556,"longitude":12.5147222222222,"name":"Piattaforma_Acqua_Alta_Siap"},
    {"key":"PTF - Piattaforma Acqua Alta","latitude":45.3230555555556,"longitude":12.5147222222222,"name":"PTF - Piattaforma Acqua Alta"}
]
